{
    "194.199.112.227": {
        "lat": 49.1837,
        "lon": -0.356,
        "country": "France",
        "city": "Caen"
    },
    "46.193.4.192": {
        "lat": 48.8566,
        "lon": 2.35222,
        "country": "France",
        "city": "Paris"
    },
    "2a04:cec0:193a:fe8c:ecc3:fae3:9fab:93f": {
        "lat": 48.8323,
        "lon": 2.4075,
        "country": "France",
        "city": "Paris"
    },
    "194.3.29.42": {
        "lat": 48.8566,
        "lon": 2.35222,
        "country": "France",
        "city": "Paris"
    },
    "2a01:e0a:35c:2060:f5f2:1423:da3:45b3": {
        "lat": 52.3783,
        "lon": 4.90073,
        "country": "The Netherlands",
        "city": "Amsterdam"
    },
    "2a04:cec0:c009:339f:c0f4:fe58:b355:d375": {
        "lat": 48.8909,
        "lon": 2.2093,
        "country": "France",
        "city": "Nanterre"
    },
    "194.199.112.218": {
        "lat": 49.1837,
        "lon": -0.356,
        "country": "France",
        "city": "Caen"
    },
    "2a04:cec0:1937:b5a5:5de3:21dc:fd36:6de9": {
        "lat": 48.9163,
        "lon": 2.3869,
        "country": "France",
        "city": "Aubervilliers"
    },
    "2a04:cec0:f062:fbe5:e565:67d4:d0ca:5ca4": {
        "lat": 48.8619,
        "lon": 2.4506,
        "country": "France",
        "city": "Montreuil"
    },
    "2a04:cec0:f062:fbe5:4f8:a611:b875:81d3": {
        "lat": 48.8619,
        "lon": 2.4506,
        "country": "France",
        "city": "Montreuil"
    },
    "2a04:cec0:f062:fbe5:cdff:23d8:5670:c153": {
        "lat": 48.8619,
        "lon": 2.4506,
        "country": "France",
        "city": "Montreuil"
    },
    "2a04:cec0:f062:fbe5:5144:4208:a617:e48a": {
        "lat": 48.8619,
        "lon": 2.4506,
        "country": "France",
        "city": "Montreuil"
    },
    "2a04:cec0:f062:fbe5:51ae:8fb2:ea4a:7eab": {
        "lat": 48.8619,
        "lon": 2.4506,
        "country": "France",
        "city": "Montreuil"
    },
    "2a01:cb05:4a0:e000:ee97:c6b1:a6d9:3dd8": {
        "lat": 49.1837,
        "lon": -0.356,
        "country": "France",
        "city": "Caen"
    },
    "86.237.227.27": {
        "lat": 49.1837,
        "lon": -0.356,
        "country": "France",
        "city": "Caen"
    }
}